[
  {
    "city": "ירושלים",
    "city_ascii": "Jerusalem",
    "lat": "31.7833",
    "lng": "35.2167",
    "country": "Israel",
    "iso2": "IL",
    "iso3": "ISR",
    "admin_name": "Jerusalem",
    "capital": "primary",
    "population": "919438",
    "id": "1376261644"
  },
  {
    "city": "תל אביב - יפו",
    "city_ascii": "Tel Aviv-Yafo",
    "lat": "32.0800",
    "lng": "34.7800",
    "country": "Israel",
    "iso2": "IL",
    "iso3": "ISR",
    "admin_name": "Tel Aviv",
    "capital": "admin",
    "population": "451523",
    "id": "1376401542"
  },
  {
    "city": "חיפה",
    "city_ascii": "Haifa",
    "lat": "32.8000",
    "lng": "34.9833",
    "country": "Israel",
    "iso2": "IL",
    "iso3": "ISR",
    "admin_name": "Haifa",
    "capital": "admin",
    "population": "281087",
    "id": "1376133727"
  },
  {
    "city": "ראשון לציון",
    "city_ascii": "Rishon LeZiyyon",
    "lat": "31.9711",
    "lng": "34.7894",
    "country": "Israel",
    "iso2": "IL",
    "iso3": "ISR",
    "admin_name": "Central",
    "capital": "",
    "population": "249860",
    "id": "1376642268"
  },
  {
    "city": "פתח-תקווה",
    "city_ascii": "Petah Tiqwa",
    "lat": "32.0833",
    "lng": "34.8833",
    "country": "Israel",
    "iso2": "IL",
    "iso3": "ISR",
    "admin_name": "Central",
    "capital": "",
    "population": "236169",
    "id": "1376362310"
  },
  {
    "city": "אשדוד",
    "city_ascii": "Ashdod",
    "lat": "31.7978",
    "lng": "34.6503",
    "country": "Israel",
    "iso2": "IL",
    "iso3": "ISR",
    "admin_name": "Southern",
    "capital": "",
    "population": "220174",
    "id": "1376458766"
  },
  {
    "city": "נתניה",
    "city_ascii": "Netanya",
    "lat": "32.3328",
    "lng": "34.8600",
    "country": "Israel",
    "iso2": "IL",
    "iso3": "ISR",
    "admin_name": "Central",
    "capital": "",
    "population": "217244",
    "id": "1376203187"
  },
  {
    "city": "Beersheba",
    "city_ascii": "Beersheba",
    "lat": "31.2589",
    "lng": "34.7978",
    "country": "Israel",
    "iso2": "IL",
    "iso3": "ISR",
    "admin_name": "Southern",
    "capital": "admin",
    "population": "209000",
    "id": "1376023307"
  },
  {
    "city": "Bené Beraq",
    "city_ascii": "Bene Beraq",
    "lat": "32.0807",
    "lng": "34.8338",
    "country": "Israel",
    "iso2": "IL",
    "iso3": "ISR",
    "admin_name": "Tel Aviv",
    "capital": "",
    "population": "193774",
    "id": "1376944837"
  },
  {
    "city": "Holon",
    "city_ascii": "Holon",
    "lat": "32.0167",
    "lng": "34.7667",
    "country": "Israel",
    "iso2": "IL",
    "iso3": "ISR",
    "admin_name": "Tel Aviv",
    "capital": "",
    "population": "188834",
    "id": "1376222772"
  },
  {
    "city": "Ramat Gan",
    "city_ascii": "Ramat Gan",
    "lat": "32.0700",
    "lng": "34.8235",
    "country": "Israel",
    "iso2": "IL",
    "iso3": "ISR",
    "admin_name": "Tel Aviv",
    "capital": "",
    "population": "152596",
    "id": "1376357911"
  },
  {
    "city": "Bat Yam",
    "city_ascii": "Bat Yam",
    "lat": "32.0231",
    "lng": "34.7503",
    "country": "Israel",
    "iso2": "IL",
    "iso3": "ISR",
    "admin_name": "Tel Aviv",
    "capital": "",
    "population": "128800",
    "id": "1376837517"
  },
  {
    "city": "Ashqelon",
    "city_ascii": "Ashqelon",
    "lat": "31.6658",
    "lng": "34.5664",
    "country": "Israel",
    "iso2": "IL",
    "iso3": "ISR",
    "admin_name": "Southern",
    "capital": "",
    "population": "134454",
    "id": "1376324059"
  },
  {
    "city": "Reẖovot",
    "city_ascii": "Rehovot",
    "lat": "31.8914",
    "lng": "34.8078",
    "country": "Israel",
    "iso2": "IL",
    "iso3": "ISR",
    "admin_name": "Central",
    "capital": "",
    "population": "132671",
    "id": "1376684821"
  },
  {
    "city": "Bet Shemesh",
    "city_ascii": "Bet Shemesh",
    "lat": "31.7514",
    "lng": "34.9886",
    "country": "Israel",
    "iso2": "IL",
    "iso3": "ISR",
    "admin_name": "Jerusalem",
    "capital": "",
    "population": "114371",
    "id": "1376846832"
  },
  {
    "city": "Kefar Sava",
    "city_ascii": "Kefar Sava",
    "lat": "32.1858",
    "lng": "34.9077",
    "country": "Israel",
    "iso2": "IL",
    "iso3": "ISR",
    "admin_name": "Central",
    "capital": "",
    "population": "100800",
    "id": "1376008883"
  },
  {
    "city": "Herẕliyya",
    "city_ascii": "Herzliyya",
    "lat": "32.1556",
    "lng": "34.8422",
    "country": "Israel",
    "iso2": "IL",
    "iso3": "ISR",
    "admin_name": "Tel Aviv",
    "capital": "",
    "population": "93989",
    "id": "1376303805"
  },
  {
    "city": "Nazareth",
    "city_ascii": "Nazareth",
    "lat": "32.7021",
    "lng": "35.2978",
    "country": "Israel",
    "iso2": "IL",
    "iso3": "ISR",
    "admin_name": "Northern",
    "capital": "admin",
    "population": "83400",
    "id": "1376505625"
  },
  {
    "city": "Ra‘ananna",
    "city_ascii": "Ra`ananna",
    "lat": "32.1833",
    "lng": "34.8667",
    "country": "Israel",
    "iso2": "IL",
    "iso3": "ISR",
    "admin_name": "Central",
    "capital": "",
    "population": "74000",
    "id": "1376791991"
  },
  {
    "city": "Ramla",
    "city_ascii": "Ramla",
    "lat": "31.9275",
    "lng": "34.8625",
    "country": "Israel",
    "iso2": "IL",
    "iso3": "ISR",
    "admin_name": "Central",
    "capital": "admin",
    "population": "75500",
    "id": "1376321361"
  },
  {
    "city": "Givatayim",
    "city_ascii": "Givatayim",
    "lat": "32.0697",
    "lng": "34.8117",
    "country": "Israel",
    "iso2": "IL",
    "iso3": "ISR",
    "admin_name": "Tel Aviv",
    "capital": "",
    "population": "59518",
    "id": "1376739486"
  },
  {
    "city": "Hod HaSharon",
    "city_ascii": "Hod HaSharon",
    "lat": "32.1500",
    "lng": "34.8833",
    "country": "Israel",
    "iso2": "IL",
    "iso3": "ISR",
    "admin_name": "Central",
    "capital": "",
    "population": "56659",
    "id": "1376159880"
  },
  {
    "city": "Qiryat Ata",
    "city_ascii": "Qiryat Ata",
    "lat": "32.8000",
    "lng": "35.1000",
    "country": "Israel",
    "iso2": "IL",
    "iso3": "ISR",
    "admin_name": "Haifa",
    "capital": "",
    "population": "55464",
    "id": "1376676929"
  },
  {
    "city": "Rosh Ha‘Ayin",
    "city_ascii": "Rosh Ha`Ayin",
    "lat": "32.0833",
    "lng": "34.9500",
    "country": "Israel",
    "iso2": "IL",
    "iso3": "ISR",
    "admin_name": "Central",
    "capital": "",
    "population": "56300",
    "id": "1376619380"
  },
  {
    "city": "Umm el Faḥm",
    "city_ascii": "Umm el Fahm",
    "lat": "32.5158",
    "lng": "35.1525",
    "country": "Israel",
    "iso2": "IL",
    "iso3": "ISR",
    "admin_name": "Haifa",
    "capital": "",
    "population": "55300",
    "id": "1376814378"
  },
  {
    "city": "Nes Ẕiyyona",
    "city_ascii": "Nes Ziyyona",
    "lat": "31.9333",
    "lng": "34.8000",
    "country": "Israel",
    "iso2": "IL",
    "iso3": "ISR",
    "admin_name": "Central",
    "capital": "",
    "population": "50200",
    "id": "1376745785"
  },
  {
    "city": "El‘ad",
    "city_ascii": "El`ad",
    "lat": "32.0523",
    "lng": "34.9512",
    "country": "Israel",
    "iso2": "IL",
    "iso3": "ISR",
    "admin_name": "Central",
    "capital": "",
    "population": "46896",
    "id": "1376486332"
  },
  {
    "city": "Ramat HaSharon",
    "city_ascii": "Ramat HaSharon",
    "lat": "32.1500",
    "lng": "34.8333",
    "country": "Israel",
    "iso2": "IL",
    "iso3": "ISR",
    "admin_name": "Tel Aviv",
    "capital": "",
    "population": "46700",
    "id": "1376215427"
  },
  {
    "city": "Karmiel",
    "city_ascii": "Karmiel",
    "lat": "32.9000",
    "lng": "35.2833",
    "country": "Israel",
    "iso2": "IL",
    "iso3": "ISR",
    "admin_name": "Northern",
    "capital": "",
    "population": "45300",
    "id": "1376615005"
  },
  {
    "city": "Qiryat Ono",
    "city_ascii": "Qiryat Ono",
    "lat": "32.0636",
    "lng": "34.8553",
    "country": "Israel",
    "iso2": "IL",
    "iso3": "ISR",
    "admin_name": "Tel Aviv",
    "capital": "",
    "population": "37791",
    "id": "1376929399"
  },
  {
    "city": "Ben Zakkay",
    "city_ascii": "Ben Zakkay",
    "lat": "31.8833",
    "lng": "34.7333",
    "country": "Israel",
    "iso2": "IL",
    "iso3": "ISR",
    "admin_name": "Central",
    "capital": "",
    "population": "42314",
    "id": "1376946236"
  },
  {
    "city": "Qiryat Bialik",
    "city_ascii": "Qiryat Bialik",
    "lat": "32.8331",
    "lng": "35.0664",
    "country": "Israel",
    "iso2": "IL",
    "iso3": "ISR",
    "admin_name": "Haifa",
    "capital": "",
    "population": "39900",
    "id": "1376833983"
  },
  {
    "city": "Or Yehuda",
    "city_ascii": "Or Yehuda",
    "lat": "32.0333",
    "lng": "34.8500",
    "country": "Israel",
    "iso2": "IL",
    "iso3": "ISR",
    "admin_name": "Tel Aviv",
    "capital": "",
    "population": "36706",
    "id": "1376356429"
  },
  {
    "city": "Shefar‘am",
    "city_ascii": "Shefar`am",
    "lat": "32.8056",
    "lng": "35.1694",
    "country": "Israel",
    "iso2": "IL",
    "iso3": "ISR",
    "admin_name": "Northern",
    "capital": "",
    "population": "41600",
    "id": "1376191471"
  },
  {
    "city": "Yehud",
    "city_ascii": "Yehud",
    "lat": "32.0333",
    "lng": "34.8833",
    "country": "Israel",
    "iso2": "IL",
    "iso3": "ISR",
    "admin_name": "Central",
    "capital": "",
    "population": "29146",
    "id": "1376760246"
  },
  {
    "city": "Giv‘at Shemu’él",
    "city_ascii": "Giv`at Shemu'el",
    "lat": "32.0781",
    "lng": "34.8489",
    "country": "Israel",
    "iso2": "IL",
    "iso3": "ISR",
    "admin_name": "Central",
    "capital": "",
    "population": "25298",
    "id": "1376429803"
  },
  {
    "city": "Gedera",
    "city_ascii": "Gedera",
    "lat": "31.8139",
    "lng": "34.7783",
    "country": "Israel",
    "iso2": "IL",
    "iso3": "ISR",
    "admin_name": "Central",
    "capital": "",
    "population": "26217",
    "id": "1376689197"
  },
  {
    "city": "Eṭ Ṭīra",
    "city_ascii": "Et Tira",
    "lat": "32.2328",
    "lng": "34.9503",
    "country": "Israel",
    "iso2": "IL",
    "iso3": "ISR",
    "admin_name": "Central",
    "capital": "",
    "population": "26200",
    "id": "1376315793"
  },
  {
    "city": "Gan Yavne",
    "city_ascii": "Gan Yavne",
    "lat": "31.7886",
    "lng": "34.7053",
    "country": "Israel",
    "iso2": "IL",
    "iso3": "ISR",
    "admin_name": "Central",
    "capital": "",
    "population": "22453",
    "id": "1376546526"
  },
  {
    "city": "Kafr Qāsim",
    "city_ascii": "Kafr Qasim",
    "lat": "32.1142",
    "lng": "34.9772",
    "country": "Israel",
    "iso2": "IL",
    "iso3": "ISR",
    "admin_name": "Central",
    "capital": "",
    "population": "21848",
    "id": "1376925215"
  },
  {
    "city": "Qalansuwa",
    "city_ascii": "Qalansuwa",
    "lat": "32.2850",
    "lng": "34.9811",
    "country": "Israel",
    "iso2": "IL",
    "iso3": "ISR",
    "admin_name": "Central",
    "capital": "",
    "population": "21451",
    "id": "1376958417"
  },
  {
    "city": "Hadera",
    "city_ascii": "Hadera",
    "lat": "32.4500",
    "lng": "34.9167",
    "country": "Israel",
    "iso2": "IL",
    "iso3": "ISR",
    "admin_name": "Haifa",
    "capital": "",
    "population": "91707",
    "id": "1376761209"
  },
  {
    "city": "Modi‘in Makkabbim Re‘ut",
    "city_ascii": "Modi`in Makkabbim Re`ut",
    "lat": "31.9339",
    "lng": "34.9856",
    "country": "Israel",
    "iso2": "IL",
    "iso3": "ISR",
    "admin_name": "Central",
    "capital": "",
    "population": "90013",
    "id": "1376334230"
  },
  {
    "city": "Lod",
    "city_ascii": "Lod",
    "lat": "31.9500",
    "lng": "34.9000",
    "country": "Israel",
    "iso2": "IL",
    "iso3": "ISR",
    "admin_name": "Central",
    "capital": "",
    "population": "75700",
    "id": "1376929543"
  },
  {
    "city": "Rahat",
    "city_ascii": "Rahat",
    "lat": "31.3925",
    "lng": "34.7544",
    "country": "Israel",
    "iso2": "IL",
    "iso3": "ISR",
    "admin_name": "Southern",
    "capital": "",
    "population": "64462",
    "id": "1376207828"
  },
  {
    "city": "Nahariyya",
    "city_ascii": "Nahariyya",
    "lat": "33.0036",
    "lng": "35.0925",
    "country": "Israel",
    "iso2": "IL",
    "iso3": "ISR",
    "admin_name": "Northern",
    "capital": "",
    "population": "60000",
    "id": "1376378013"
  },
  {
    "city": "Eilat",
    "city_ascii": "Eilat",
    "lat": "29.5500",
    "lng": "34.9500",
    "country": "Israel",
    "iso2": "IL",
    "iso3": "ISR",
    "admin_name": "Southern",
    "capital": "",
    "population": "51935",
    "id": "1376831370"
  },
  {
    "city": "‘Akko",
    "city_ascii": "`Akko",
    "lat": "32.9261",
    "lng": "35.0839",
    "country": "Israel",
    "iso2": "IL",
    "iso3": "ISR",
    "admin_name": "Northern",
    "capital": "",
    "population": "47675",
    "id": "1376781950"
  },
  {
    "city": "Afula",
    "city_ascii": "Afula",
    "lat": "32.6078",
    "lng": "35.2897",
    "country": "Israel",
    "iso2": "IL",
    "iso3": "ISR",
    "admin_name": "Northern",
    "capital": "",
    "population": "44930",
    "id": "1376077681"
  },
  {
    "city": "Tiberias",
    "city_ascii": "Tiberias",
    "lat": "32.7897",
    "lng": "35.5247",
    "country": "Israel",
    "iso2": "IL",
    "iso3": "ISR",
    "admin_name": "Northern",
    "capital": "",
    "population": "44200",
    "id": "1376017086"
  },
  {
    "city": "Pardés H̱anna Karkur",
    "city_ascii": "Pardes Hanna Karkur",
    "lat": "32.4711",
    "lng": "34.9675",
    "country": "Israel",
    "iso2": "IL",
    "iso3": "ISR",
    "admin_name": "Haifa",
    "capital": "",
    "population": "42100",
    "id": "1376163698"
  },
  {
    "city": "Eṭ Ṭaiyiba",
    "city_ascii": "Et Taiyiba",
    "lat": "32.2667",
    "lng": "35.0000",
    "country": "Israel",
    "iso2": "IL",
    "iso3": "ISR",
    "admin_name": "Central",
    "capital": "",
    "population": "43100",
    "id": "1376597784"
  },
  {
    "city": "Qiryat Moẕqin",
    "city_ascii": "Qiryat Mozqin",
    "lat": "32.8369",
    "lng": "35.0775",
    "country": "Israel",
    "iso2": "IL",
    "iso3": "ISR",
    "admin_name": "Haifa",
    "capital": "",
    "population": "40160",
    "id": "1376435231"
  },
  {
    "city": "Qiryat Yam",
    "city_ascii": "Qiryat Yam",
    "lat": "32.8331",
    "lng": "35.0664",
    "country": "Israel",
    "iso2": "IL",
    "iso3": "ISR",
    "admin_name": "Haifa",
    "capital": "",
    "population": "39416",
    "id": "1376460777"
  },
  {
    "city": "Ma‘alot Tarshīḥā",
    "city_ascii": "Ma`alot Tarshiha",
    "lat": "33.0167",
    "lng": "35.2708",
    "country": "Israel",
    "iso2": "IL",
    "iso3": "ISR",
    "admin_name": "Northern",
    "capital": "",
    "population": "36000",
    "id": "1376992708"
  },
  {
    "city": "Ẕefat",
    "city_ascii": "Zefat",
    "lat": "32.9658",
    "lng": "35.4983",
    "country": "Israel",
    "iso2": "IL",
    "iso3": "ISR",
    "admin_name": "Northern",
    "capital": "",
    "population": "35700",
    "id": "1376611460"
  },
  {
    "city": "Tamra",
    "city_ascii": "Tamra",
    "lat": "32.8511",
    "lng": "35.2071",
    "country": "Israel",
    "iso2": "IL",
    "iso3": "ISR",
    "admin_name": "Northern",
    "capital": "",
    "population": "34000",
    "id": "1376012882"
  },
  {
    "city": "Dimona",
    "city_ascii": "Dimona",
    "lat": "31.0700",
    "lng": "35.0300",
    "country": "Israel",
    "iso2": "IL",
    "iso3": "ISR",
    "admin_name": "Southern",
    "capital": "",
    "population": "34135",
    "id": "1376956540"
  },
  {
    "city": "Sakhnīn",
    "city_ascii": "Sakhnin",
    "lat": "32.8667",
    "lng": "35.3000",
    "country": "Israel",
    "iso2": "IL",
    "iso3": "ISR",
    "admin_name": "Northern",
    "capital": "",
    "population": "31100",
    "id": "1376646130"
  },
  {
    "city": "Netivot",
    "city_ascii": "Netivot",
    "lat": "31.4167",
    "lng": "34.5833",
    "country": "Israel",
    "iso2": "IL",
    "iso3": "ISR",
    "admin_name": "Southern",
    "capital": "",
    "population": "31314",
    "id": "1376200656"
  },
  {
    "city": "Ofaqim",
    "city_ascii": "Ofaqim",
    "lat": "31.2833",
    "lng": "34.6167",
    "country": "Israel",
    "iso2": "IL",
    "iso3": "ISR",
    "admin_name": "Southern",
    "capital": "",
    "population": "27771",
    "id": "1376992458"
  },
  {
    "city": "Migdal Ha‘Emeq",
    "city_ascii": "Migdal Ha`Emeq",
    "lat": "32.6786",
    "lng": "35.2444",
    "country": "Israel",
    "iso2": "IL",
    "iso3": "ISR",
    "admin_name": "Northern",
    "capital": "",
    "population": "25600",
    "id": "1376279434"
  },
  {
    "city": "Nesher",
    "city_ascii": "Nesher",
    "lat": "32.7711",
    "lng": "35.0394",
    "country": "Israel",
    "iso2": "IL",
    "iso3": "ISR",
    "admin_name": "Haifa",
    "capital": "",
    "population": "23700",
    "id": "1376735055"
  },
  {
    "city": "Arad",
    "city_ascii": "Arad",
    "lat": "31.2603",
    "lng": "35.2147",
    "country": "Israel",
    "iso2": "IL",
    "iso3": "ISR",
    "admin_name": "Southern",
    "capital": "",
    "population": "24436",
    "id": "1376674296"
  },
  {
    "city": "Kefar Yona",
    "city_ascii": "Kefar Yona",
    "lat": "32.3150",
    "lng": "34.9328",
    "country": "Israel",
    "iso2": "IL",
    "iso3": "ISR",
    "admin_name": "Central",
    "capital": "",
    "population": "21611",
    "id": "1376924544"
  },
  {
    "city": "Tirat Karmel",
    "city_ascii": "Tirat Karmel",
    "lat": "32.7667",
    "lng": "34.9667",
    "country": "Israel",
    "iso2": "IL",
    "iso3": "ISR",
    "admin_name": "Haifa",
    "capital": "",
    "population": "22200",
    "id": "1376894717"
  },
  {
    "city": "Sederot",
    "city_ascii": "Sederot",
    "lat": "31.5261",
    "lng": "34.5939",
    "country": "Israel",
    "iso2": "IL",
    "iso3": "ISR",
    "admin_name": "Southern",
    "capital": "",
    "population": "23090",
    "id": "1376365217"
  },
  {
    "city": "Qiryat Mal’akhi",
    "city_ascii": "Qiryat Mal'akhi",
    "lat": "31.7333",
    "lng": "34.7500",
    "country": "Israel",
    "iso2": "IL",
    "iso3": "ISR",
    "admin_name": "Southern",
    "capital": "",
    "population": "23100",
    "id": "1376662881"
  },
  {
    "city": "Qiryat Shemona",
    "city_ascii": "Qiryat Shemona",
    "lat": "33.2075",
    "lng": "35.5697",
    "country": "Israel",
    "iso2": "IL",
    "iso3": "ISR",
    "admin_name": "Northern",
    "capital": "",
    "population": "23076",
    "id": "1376248603"
  },
  {
    "city": "Yoqne‘am ‘Illit",
    "city_ascii": "Yoqne`am `Illit",
    "lat": "32.6594",
    "lng": "35.1100",
    "country": "Israel",
    "iso2": "IL",
    "iso3": "ISR",
    "admin_name": "Northern",
    "capital": "",
    "population": "21383",
    "id": "1376262404"
  },
  {
    "city": "Be’er Ya‘aqov",
    "city_ascii": "Be'er Ya`aqov",
    "lat": "31.9436",
    "lng": "34.8392",
    "country": "Israel",
    "iso2": "IL",
    "iso3": "ISR",
    "admin_name": "Central",
    "capital": "",
    "population": "18401",
    "id": "1376941719"
  },
  {
    "city": "Or ‘Aqiva",
    "city_ascii": "Or `Aqiva",
    "lat": "32.5000",
    "lng": "34.9167",
    "country": "Israel",
    "iso2": "IL",
    "iso3": "ISR",
    "admin_name": "Haifa",
    "capital": "",
    "population": "17759",
    "id": "1376081727"
  },
  {
    "city": "Bet She’an",
    "city_ascii": "Bet She'an",
    "lat": "32.4961",
    "lng": "35.4989",
    "country": "Israel",
    "iso2": "IL",
    "iso3": "ISR",
    "admin_name": "Northern",
    "capital": "",
    "population": "18200",
    "id": "1376100451"
  },
  {
    "city": "Majdal Shams",
    "city_ascii": "Majdal Shams",
    "lat": "33.2692",
    "lng": "35.7706",
    "country": "Israel",
    "iso2": "IL",
    "iso3": "ISR",
    "admin_name": "Northern",
    "capital": "",
    "population": "15973",
    "id": "1376000007"
  },
  {
    "city": "Jisr ez Zarqā",
    "city_ascii": "Jisr ez Zarqa",
    "lat": "32.5379",
    "lng": "34.9122",
    "country": "Israel",
    "iso2": "IL",
    "iso3": "ISR",
    "admin_name": "Haifa",
    "capital": "",
    "population": "13962",
    "id": "1376963985"
  },
  {
    "city": "Omer",
    "city_ascii": "Omer",
    "lat": "31.2683",
    "lng": "34.8489",
    "country": "Israel",
    "iso2": "IL",
    "iso3": "ISR",
    "admin_name": "Southern",
    "capital": "",
    "population": "7339",
    "id": "1376441239"
  },
  {
    "city": "Buq‘ātā",
    "city_ascii": "Buq`ata",
    "lat": "33.2014",
    "lng": "35.7797",
    "country": "Israel",
    "iso2": "IL",
    "iso3": "ISR",
    "admin_name": "Northern",
    "capital": "",
    "population": "6329",
    "id": "1376000061"
  }
]
